id,navn,lat,lon,fast_kostnad,kapasitet_tonn
IS01,Oslo,59.911,10.757,3200000,2800
IS02,Drammen,59.743,10.205,2400000,2000
IS03,Kristiansand,58.147,7.996,2100000,1800
IS04,Stavanger,58.97,5.733,2500000,2200
IS05,Bergen,60.391,5.324,2700000,2400
IS06,Trondheim,63.43,10.395,2500000,2100
IS07,Boedoe,67.28,14.405,1700000,1200
IS08,Hamar,60.795,11.068,1900000,1600
